{ "type": "Feature", "properties": { "NOME": "Azienda Sanitaria Ba-4 Centro di diabetologia", "INDIRIZZO": "VIA CADUTI DI VIA FANI", "CIVICO": "25", "X": 2677197.770000, "Y": 4553592.960000, "VALORE": 0.000000 }, "geometry": { "type": "Point", "coordinates": [ 16.872325830910071, 41.118358737145783 ] } },
{ "type": "Feature", "properties": { "NOME": "Azienda Unita' Sanitaria Locale Ba-4 S.I.M.", "INDIRIZZO": "VIA PASUBIO", "CIVICO": "149", "X": 2676841.140000, "Y": 4552696.200000, "VALORE": 0.000000 }, "geometry": { "type": "Point", "coordinates": [ 16.867851222877881, 41.110354050637902 ] } },
{ "type": "Feature", "properties": { "NOME": "Unita' Sanitaria Locale Ba-4", "INDIRIZZO": "LUNGOMARE GIAMBATTISTA E PIETRO STARITA", "CIVICO": "6", "X": 2674798.430000, "Y": 4555422.820000, "VALORE": 0.000000 }, "geometry": { "type": "Point", "coordinates": [ 16.844222376875006, 41.135294075903111 ] } },
{ "type": "Feature", "properties": { "NOME": "Ospedale Pediatrico Giovanni XXIII", "INDIRIZZO": "VIA GIOVANNI AMENDOLA", "CIVICO": "207", "X": 2678610.230000, "Y": 4551499.980000, "VALORE": 0.000000 }, "geometry": { "type": "Point", "coordinates": [ 16.888601086457474, 41.099241066999781 ] } },
{ "type": "Feature", "properties": { "NOME": "Policlinico consorziale", "INDIRIZZO": "PIAZZALE GIULIO CESARE", "CIVICO": "11", "X": 2676347.030000, "Y": 4552861.130000, "VALORE": 0.000000 }, "geometry": { "type": "Point", "coordinates": [ 16.862011399017668, 41.111934125961362 ] } },
{ "type": "Feature", "properties": { "NOME": "Ospedale Militare Lorenzo Bonomo", "INDIRIZZO": "CORSO ALCIDE DE GASPERI", "CIVICO": null, "X": 2677093.370000, "Y": 4550884.480000, "VALORE": 0.000000 }, "geometry": { "type": "Point", "coordinates": [ 16.870390792791063, 41.093994246318466 ] } },
{ "type": "Feature", "properties": { "NOME": "Presidio Ospedaliero di Venere", "INDIRIZZO": "VIA OSPEDALE DI VENERE", "CIVICO": "150", "X": 2676615.180000, "Y": 4548908.240000, "VALORE": 0.000000 }, "geometry": { "type": "Point", "coordinates": [ 16.864196915206385, 41.076294047987552 ] } },
{ "type": "Feature", "properties": { "NOME": "Presidio Ospedaliero San Paolo", "INDIRIZZO": "VIA CAPO SCARDICCHIO", "CIVICO": "92", "X": 2669700.140000, "Y": 4553556.330000, "VALORE": 0.000000 }, "geometry": { "type": "Point", "coordinates": [ 16.783053486080718, 41.119445318449657 ] } },
{ "type": "Feature", "properties": { "NOME": "Ospedale Cotugno", "INDIRIZZO": "VIA COTUGNO", "CIVICO": null, "X": 2676025.440000, "Y": 4552210.500000, "VALORE": 0.000000 }, "geometry": { "type": "Point", "coordinates": [ 16.858018082401088, 41.106138276534487 ] } }
